{"北京":{"name":"北京市","province":"北京市","lat":39.9031324643,"lon":116.4010433787,"x":6763,"level":{"range":4,"level":1,"name":"一线城市"},"y":6381,"cityNo":1},"上海":{"name":"上海市","province":"上海市","lat":31.2319526784,"lon":121.469443249,"x":7779,"level":{"range":4,"level":1,"name":"一线城市"},"y":4409,"cityNo":2},"广州":{"name":"广州市","province":"广东省越秀区吉祥路79号","lat":23.1317146641,"lon":113.2595185241,"x":6173,"level":{"range":4,"level":1,"name":"一线城市"},"y":2560,"cityNo":3},"深圳":{"name":"深圳市","province":"广东省福田区新园路37号","lat":22.5455465546,"lon":114.0527779134,"x":6336,"level":{"range":4,"level":1,"name":"一线城市"},"y":2429,"cityNo":4},"成都":{"name":"成都市","province":"四川省锦江区红星路4段-88号-附1号","lat":30.6522796787,"lon":104.0725574128,"x":4387,"level":{"level":2,"range":19,"name":"新一线城市"},"y":4304,"cityNo":5},"杭州":{"name":"杭州市","province":"浙江省拱墅区环城北路316号","lat":30.2753694112,"lon":120.1509063337,"x":7530,"level":{"level":2,"range":19,"name":"新一线城市"},"y":4182,"cityNo":6},"武汉":{"name":"武汉市","province":"湖北省江岸区沿江大道188号","lat":30.5952548577,"lon":114.2999398195,"x":6384,"level":{"level":2,"range":19,"name":"新一线城市"},"y":4231,"cityNo":7},"重庆":{"name":"重庆市","province":"重庆市","lat":29.565545745,"lon":106.5483098308,"x":4858,"level":{"level":2,"range":19,"name":"新一线城市"},"y":4033,"cityNo":8},"南京":{"name":"南京市","province":"江苏省玄武区北京东路42-2号","lat":32.0604117958,"lon":118.7911366424,"x":7252,"level":{"level":2,"range":19,"name":"新一线城市"},"y":4577,"cityNo":9},"天津":{"name":"天津市","province":"天津市","lat":39.0867706952,"lon":117.196953841,"x":6911,"level":{"level":2,"range":19,"name":"新一线城市"},"y":6191,"cityNo":10},"苏州":{"name":"苏州市","province":"江苏省姑苏区三香路128号","lat":31.2995181173,"lon":120.5814069003,"x":7605,"level":{"level":2,"range":19,"name":"新一线城市"},"y":4417,"cityNo":11},"西安":{"name":"西安市","province":"陕西省未央区凤城八路109号","lat":34.3425923471,"lon":108.9349972803,"x":5362,"level":{"level":2,"range":19,"name":"新一线城市"},"y":5099,"cityNo":12},"长沙":{"name":"长沙市","province":"湖南省岳麓区俯前路208号","lat":28.2322704791,"lon":112.9335552442,"x":6113,"level":{"level":2,"range":19,"name":"新一线城市"},"y":3700,"cityNo":13},"沈阳":{"name":"沈阳市","province":"辽宁省沈河区市府大路243号","lat":41.8025810937,"lon":123.4244498695,"x":8014,"level":{"level":2,"range":19,"name":"新一线城市"},"y":6879,"cityNo":14},"青岛":{"name":"青岛市","province":"山东省市南区香港中路11号","lat":36.0658889754,"lon":120.3780128118,"x":7522,"level":{"level":2,"range":19,"name":"新一线城市"},"y":5504,"cityNo":15},"郑州":{"name":"郑州市","province":"河南省中原区中原西路233号","lat":34.7483926297,"lon":113.6192610688,"x":6253,"level":{"level":2,"range":19,"name":"新一线城市"},"y":5177,"cityNo":16},"大连":{"name":"大连市","province":"辽宁省西岗区人民广场1号","lat":38.9125572467,"lon":121.6100242808,"x":7722,"level":{"level":2,"range":19,"name":"新一线城市"},"y":6177,"cityNo":17},"东莞":{"name":"东莞市","province":"广东省东莞市鸿福路99号","lat":23.0236494965,"lon":113.7466213637,"x":6273,"level":{"level":2,"range":19,"name":"新一线城市"},"y":2535,"cityNo":18},"宁波":{"name":"宁波市","province":"浙江省江东区河清北路","lat":29.8630025108,"lon":121.6178976436,"x":7822,"level":{"level":2,"range":19,"name":"新一线城市"},"y":4102,"cityNo":19},"厦门":{"name":"厦门市","province":"福建省思明区湖滨北路61号","lat":24.4818403305,"lon":118.0845569942,"x":7159,"level":{"level":3,"range":49,"name":"二线城市"},"y":2871,"cityNo":20},"福州":{"name":"福州市","province":"福建省鼓楼区乌山路96号","lat":26.0772916987,"lon":119.2921461622,"x":7393,"level":{"level":3,"range":49,"name":"二线城市"},"y":3234,"cityNo":21},"无锡":{"name":"无锡市","province":"江苏省滨湖区观山路","lat":31.4949453558,"lon":120.3069141161,"x":7550,"level":{"level":3,"range":49,"name":"二线城市"},"y":4459,"cityNo":22},"合肥":{"name":"合肥市","province":"安徽省蜀山区东流路100号","lat":31.8223533535,"lon":117.2216698776,"x":6950,"level":{"level":3,"range":49,"name":"二线城市"},"y":4515,"cityNo":23},"昆明":{"name":"昆明市","province":"云南省五华区华山南路78","lat":25.0482091732,"lon":102.7083355915,"x":4032,"level":{"level":3,"range":49,"name":"二线城市"},"y":3068,"cityNo":24},"哈尔滨":{"name":"哈尔滨市","province":"黑龙江省松北区世纪大道1号","lat":45.8012488452,"lon":126.528844686,"x":8493,"level":{"level":3,"range":49,"name":"二线城市"},"y":7888,"cityNo":25},"济南":{"name":"济南市","province":"山东省历下区龙鼎大道1","lat":36.6498157915,"lon":117.1140788117,"x":6907,"level":{"level":3,"range":49,"name":"二线城市"},"y":5621,"cityNo":26},"佛山":{"name":"佛山市","province":"广东省禅城区岭南大道原大福路14号","lat":23.0243440777,"lon":113.1164424334,"x":6143,"level":{"level":3,"range":49,"name":"二线城市"},"y":2536,"cityNo":27},"长春":{"name":"长春市","province":"吉林省南关区人民大街10111号","lat":43.8137766729,"lon":125.3171698527,"x":8318,"level":{"level":3,"range":49,"name":"二线城市"},"y":7385,"cityNo":28},"温州":{"name":"温州市","province":"浙江省鹿城区绣山路321号","lat":27.9981181016,"lon":120.6954644539,"x":7659,"level":{"level":3,"range":49,"name":"二线城市"},"y":3674,"cityNo":29},"石家庄":{"name":"石家庄市","province":"河北省长安区中山东路216号","lat":38.0417654681,"lon":114.5087442984,"x":6419,"level":{"level":3,"range":49,"name":"二线城市"},"y":5940,"cityNo":30},"南宁":{"name":"南宁市","province":"广西壮族自治区青秀区嘉宾路1号-9楼","lat":22.8189749942,"lon":108.3625136575,"x":5162,"level":{"level":3,"range":49,"name":"二线城市"},"y":2510,"cityNo":31},"常州":{"name":"常州市","province":"江苏省新北区龙城大道1280号","lat":31.8117500319,"lon":119.9705989619,"x":7482,"level":{"level":3,"range":49,"name":"二线城市"},"y":4528,"cityNo":32},"泉州":{"name":"泉州市","province":"福建省丰泽区海星街","lat":24.8765003854,"lon":118.6716271592,"x":7276,"level":{"level":3,"range":49,"name":"二线城市"},"y":2962,"cityNo":33},"南昌":{"name":"南昌市","province":"江西省东湖区新府路118号","lat":28.6870805012,"lon":115.8535540365,"x":6693,"level":{"level":3,"range":49,"name":"二线城市"},"y":3803,"cityNo":34},"贵阳":{"name":"贵阳市","province":"贵州省乌当区林城东路7","lat":26.6511980693,"lon":106.6267636888,"x":4843,"level":{"level":3,"range":49,"name":"二线城市"},"y":3379,"cityNo":35},"太原":{"name":"太原市","province":"山西省杏花岭区新建路69","lat":37.8701144671,"lon":112.5436500641,"x":6056,"level":{"level":3,"range":49,"name":"二线城市"},"y":5901,"cityNo":36},"烟台":{"name":"烟台市","province":"山东省莱山区芙蓉路6号","lat":37.4626983218,"lon":121.4425998653,"x":7707,"level":{"level":3,"range":49,"name":"二线城市"},"y":5837,"cityNo":37},"嘉兴":{"name":"嘉兴市","province":"浙江省南湖区广场路1号","lat":30.7473763022,"lon":120.7522394145,"x":7644,"level":{"level":3,"range":49,"name":"二线城市"},"y":4293,"cityNo":38},"南通":{"name":"南通市","province":"江苏省崇川区世纪大道6号","lat":31.9830451593,"lon":120.8905277439,"x":7659,"level":{"level":3,"range":49,"name":"二线城市"},"y":4574,"cityNo":39},"金华":{"name":"金华市","province":"浙江省婺城区双龙南街801号","lat":29.0812504354,"lon":119.6427761308,"x":7440,"level":{"level":3,"range":49,"name":"二线城市"},"y":3910,"cityNo":40},"珠海":{"name":"珠海市","province":"广东省香洲区人民东路4号","lat":22.2738693728,"lon":113.571087851,"x":6237,"level":{"level":3,"range":49,"name":"二线城市"},"y":2368,"cityNo":41},"惠州":{"name":"惠州市","province":"广东省惠城区云山西路6号","lat":23.1131954052,"lon":114.4120214806,"x":6410,"level":{"level":3,"range":49,"name":"二线城市"},"y":2555,"cityNo":42},"徐州":{"name":"徐州市","province":"江苏省云龙区昆仑大道1号","lat":34.2082085551,"lon":117.2786162205,"x":6950,"level":{"level":3,"range":49,"name":"二线城市"},"y":5059,"cityNo":43},"海口":{"name":"海口市","province":"海南省龙华区港湾路","lat":20.0403154771,"lon":110.31432196,"x":5550,"level":{"level":3,"range":49,"name":"二线城市"},"y":1880,"cityNo":44},"乌鲁木齐":{"name":"乌鲁木齐市","province":"新疆维吾尔自治区水磨沟区","lat":43.8232927607,"lon":87.6151718524,"x":1697,"level":{"level":3,"range":49,"name":"二线城市"},"y":7700,"cityNo":45},"绍兴":{"name":"绍兴市","province":"浙江省越城区曲屯路286号","lat":30.0327950816,"lon":120.5754158967,"x":7616,"level":{"level":3,"range":49,"name":"二线城市"},"y":4131,"cityNo":46},"中山":{"name":"中山市","province":"广东省中山市松苑路1号","lat":22.5186232576,"lon":113.3873460108,"x":6199,"level":{"level":3,"range":49,"name":"二线城市"},"y":2423,"cityNo":47},"台州":{"name":"台州市","province":"浙江省椒江区白云山中路233号","lat":28.6588485244,"lon":121.4166457076,"x":7795,"level":{"level":3,"range":49,"name":"二线城市"},"y":3829,"cityNo":48},"兰州":{"name":"兰州市","province":"甘肃省城关区南滨河东路637号","lat":36.0615359884,"lon":103.831940499,"x":4418,"level":{"level":3,"range":49,"name":"二线城市"},"y":5540,"cityNo":49},"潍坊":{"name":"潍坊市","province":"山东省奎文区胜利东街178号","lat":36.7058334553,"lon":119.1559731161,"x":7288,"level":{"level":4,"range":119,"name":"三线城市"},"y":5644,"cityNo":50},"保定":{"name":"保定市","province":"河北省新市区东风西路1号","lat":38.873038118,"lon":115.4582834667,"x":6593,"level":{"level":4,"range":119,"name":"三线城市"},"y":6136,"cityNo":51},"镇江":{"name":"镇江市","province":"江苏省润州区南徐大道68号","lat":32.1904578238,"lon":119.4189563589,"x":7372,"level":{"level":4,"range":119,"name":"三线城市"},"y":4610,"cityNo":52},"扬州":{"name":"扬州市","province":"江苏省邗江区文昌西路118","lat":32.3962522259,"lon":119.4074725549,"x":7369,"level":{"level":4,"range":119,"name":"三线城市"},"y":4657,"cityNo":53},"桂林":{"name":"桂林市","province":"广西壮族自治区秀峰区五美路16号","lat":25.2765178785,"lon":110.2854259037,"x":5571,"level":{"level":4,"range":119,"name":"三线城市"},"y":3046,"cityNo":54},"唐山":{"name":"唐山市","province":"河北省路北区西山道3号","lat":39.6290148309,"lon":118.1738521625,"x":7087,"level":{"level":4,"range":119,"name":"三线城市"},"y":6322,"cityNo":55},"三亚":{"name":"三亚市","province":"海南省新风街257","lat":18.2546647903,"lon":109.5077625532,"x":5370,"level":{"level":4,"range":119,"name":"三线城市"},"y":1487,"cityNo":56},"湖州":{"name":"湖州市","province":"浙江省吴兴区仁皇山路","lat":30.8950765113,"lon":120.0830807141,"x":7512,"level":{"level":4,"range":119,"name":"三线城市"},"y":4322,"cityNo":57},"呼和浩特":{"name":"呼和浩特市","province":"内蒙古自治区新城区新华东街1号","lat":40.8410664107,"lon":111.7418112118,"x":5917,"level":{"level":4,"range":119,"name":"三线城市"},"y":6603,"cityNo":58},"廊坊":{"name":"廊坊市","province":"河北省广阳区广阳道240号","lat":39.5365327894,"lon":116.6777729005,"x":6814,"level":{"level":4,"range":119,"name":"三线城市"},"y":6295,"cityNo":59},"洛阳":{"name":"洛阳市","province":"河南省洛龙区开元大道228号","lat":34.619062698,"lon":112.4471900504,"x":6031,"level":{"level":4,"range":119,"name":"三线城市"},"y":5149,"cityNo":60},"威海":{"name":"威海市","province":"山东省环翠区新威路10号","lat":37.5094609126,"lon":122.115615744,"x":7831,"level":{"level":4,"range":119,"name":"三线城市"},"y":5854,"cityNo":61},"盐城":{"name":"盐城市","province":"江苏省亭湖区世纪大道21号","lat":33.3507979619,"lon":120.1563014177,"x":7505,"level":{"level":4,"range":119,"name":"三线城市"},"y":4880,"cityNo":62},"临沂":{"name":"临沂市","province":"山东省兰山区上海路","lat":35.1051746204,"lon":118.3509489532,"x":7148,"level":{"level":4,"range":119,"name":"三线城市"},"y":5270,"cityNo":63},"江门":{"name":"江门市","province":"广东省蓬江区白沙大道西1号-1幢","lat":22.5815452443,"lon":113.0765367965,"x":6134,"level":{"level":4,"range":119,"name":"三线城市"},"y":2437,"cityNo":64},"汕头":{"name":"汕头市","province":"广东省金平区跃进路28号","lat":23.356024358,"lon":116.6777689967,"x":6876,"level":{"level":4,"range":119,"name":"三线城市"},"y":2614,"cityNo":65},"泰州":{"name":"泰州市","province":"江苏省海陵区凤凰东路58号","lat":32.4571664762,"lon":119.9180336381,"x":7467,"level":{"level":4,"range":119,"name":"三线城市"},"y":4674,"cityNo":66},"漳州":{"name":"漳州市","province":"福建省芗城区胜利西路118号7号楼","lat":24.5161030788,"lon":117.6426680471,"x":7069,"level":{"level":4,"range":119,"name":"三线城市"},"y":2876,"cityNo":67},"邯郸":{"name":"邯郸市","province":"河北省邯郸县联通北路3号","lat":36.6255177093,"lon":114.5333083418,"x":6425,"level":{"level":4,"range":119,"name":"三线城市"},"y":5610,"cityNo":68},"济宁":{"name":"济宁市","province":"山东省市中区红星中路19号","lat":35.4149889391,"lon":116.5818849023,"x":6812,"level":{"level":4,"range":119,"name":"三线城市"},"y":5334,"cityNo":69},"芜湖":{"name":"芜湖市","province":"安徽省鸠江区政通路66","lat":31.3539785172,"lon":118.4278122313,"x":7186,"level":{"level":4,"range":119,"name":"三线城市"},"y":4415,"cityNo":70},"淄博":{"name":"淄博市","province":"山东省张店区人民西路8号","lat":36.8124665025,"lon":118.0488015123,"x":7081,"level":{"level":4,"range":119,"name":"三线城市"},"y":5663,"cityNo":71},"银川":{"name":"银川市","province":"宁夏回族自治区金凤区","lat":38.4861080644,"lon":106.2280245534,"x":4895,"level":{"level":4,"range":119,"name":"三线城市"},"y":6079,"cityNo":72},"柳州":{"name":"柳州市","province":"广西壮族自治区城中区文昌路66","lat":24.3284561266,"lon":109.4238211428,"x":5391,"level":{"level":4,"range":119,"name":"三线城市"},"y":2839,"cityNo":73},"绵阳":{"name":"绵阳市","province":"四川省涪城区绵兴东路98","lat":31.4700756109,"lon":104.6761952416,"x":4515,"level":{"level":4,"range":119,"name":"三线城市"},"y":4482,"cityNo":74},"湛江":{"name":"湛江市","province":"广东省赤坎区跃进路65号","lat":21.2731531758,"lon":110.3549670187,"x":5565,"level":{"level":4,"range":119,"name":"三线城市"},"y":2154,"cityNo":75},"鞍山":{"name":"鞍山市","province":"辽宁省铁东区胜利南路36号","lat":41.1067616452,"lon":122.9891276894,"x":7945,"level":{"level":4,"range":119,"name":"三线城市"},"y":6709,"cityNo":76},"赣州":{"name":"赣州市","province":"江西省章贡区兴国路","lat":25.8323151212,"lon":114.9289700313,"x":6513,"level":{"level":4,"range":119,"name":"三线城市"},"y":3162,"cityNo":77},"大庆":{"name":"大庆市","province":"黑龙江省萨尔图区东风路15号","lat":46.5858870332,"lon":125.095365959,"x":8232,"level":{"level":4,"range":119,"name":"三线城市"},"y":8064,"cityNo":78},"宜昌":{"name":"宜昌市","province":"湖北省伍家岗区沿江大道102号","lat":30.6941641496,"lon":111.2806766288,"x":5794,"level":{"level":4,"range":119,"name":"三线城市"},"y":4258,"cityNo":79},"包头":{"name":"包头市","province":"内蒙古自治区昆都仑区钢铁大街29号","lat":40.6560457291,"lon":109.8344134372,"x":5572,"level":{"level":4,"range":119,"name":"三线城市"},"y":6566,"cityNo":80},"咸阳":{"name":"咸阳市","province":"陕西省秦都区渭阳中路6号","lat":34.3305757525,"lon":108.7044810293,"x":5318,"level":{"level":4,"range":119,"name":"三线城市"},"y":5098,"cityNo":81},"秦皇岛":{"name":"秦皇岛市","province":"河北省海港区文化路206","lat":39.934675397,"lon":119.5963955641,"x":7344,"level":{"level":4,"range":119,"name":"三线城市"},"y":6403,"cityNo":82},"株洲":{"name":"株洲市","province":"湖南省天元区天台路60","lat":27.8306437605,"lon":113.1281336916,"x":6152,"level":{"level":4,"range":119,"name":"三线城市"},"y":3609,"cityNo":83},"莆田":{"name":"莆田市","province":"福建省城厢区北大路北街15号","lat":25.4567595782,"lon":119.0029882608,"x":7339,"level":{"level":4,"range":119,"name":"三线城市"},"y":3094,"cityNo":84},"吉林":{"name":"吉林市","province":"吉林省船营区松江路65号","lat":43.8355093146,"lon":126.5436830589,"x":8533,"level":{"level":4,"range":119,"name":"三线城市"},"y":7407,"cityNo":85},"淮安":{"name":"淮安市","province":"江苏省清河区健康西路140号","lat":33.6115979198,"lon":119.0099531085,"x":7283,"level":{"level":4,"range":119,"name":"三线城市"},"y":4932,"cityNo":86},"肇庆":{"name":"肇庆市","province":"广东省端州区城中路61号","lat":23.0494072021,"lon":112.4595940973,"x":6008,"level":{"level":4,"range":119,"name":"三线城市"},"y":2542,"cityNo":87},"宁德":{"name":"宁德市","province":"福建省蕉城区闽东中路35号","lat":26.6696459972,"lon":119.5432670736,"x":7440,"level":{"level":4,"range":119,"name":"三线城市"},"y":3368,"cityNo":88},"衡阳":{"name":"衡阳市","province":"湖南省蒸湘区解放大道16号","lat":26.8968650319,"lon":112.566562528,"x":6038,"level":{"level":4,"range":119,"name":"三线城市"},"y":3401,"cityNo":89},"南平":{"name":"南平市","province":"福建省延平区八一路421号","lat":26.6446617883,"lon":118.1730568038,"x":7164,"level":{"level":4,"range":119,"name":"三线城市"},"y":3354,"cityNo":90},"连云港":{"name":"连云港市","province":"江苏省新浦区朝阳东路69号","lat":34.5975885299,"lon":119.2160118635,"x":7315,"level":{"level":4,"range":119,"name":"三线城市"},"y":5159,"cityNo":91},"丹东":{"name":"丹东市","province":"辽宁省振兴区","lat":39.9989873294,"lon":124.3491776826,"x":8207,"level":{"level":4,"range":119,"name":"三线城市"},"y":6461,"cityNo":92},"丽江":{"name":"丽江市","province":"云南省古城区","lat":26.858079591,"lon":100.2251445056,"x":3563,"level":{"level":4,"range":119,"name":"三线城市"},"y":3510,"cityNo":93},"揭阳":{"name":"揭阳市","province":"广东省榕城区临江北路","lat":23.5520162947,"lon":116.3677778178,"x":6812,"level":{"level":4,"range":119,"name":"三线城市"},"y":2656,"cityNo":94},"延边朝鲜族自治州":{"name":"延边朝鲜族自治州","province":"吉林省延吉市","lat":42.9068125192,"lon":129.4636699316,"x":9067,"level":{"level":4,"range":119,"name":"三线城市"},"y":7228,"cityNo":95},"舟山":{"name":"舟山市","province":"浙江省定海区海天大道681号","lat":29.9875019699,"lon":122.2029761266,"x":7936,"level":{"level":4,"range":119,"name":"三线城市"},"y":4135,"cityNo":96},"九江":{"name":"九江市","province":"江西省浔阳区长虹大道66","lat":29.7079896407,"lon":115.9962557984,"x":6718,"level":{"level":4,"range":119,"name":"三线城市"},"y":4033,"cityNo":97},"龙岩":{"name":"龙岩市","province":"福建省新罗区龙岩大道1号","lat":25.0777298256,"lon":117.0122307328,"x":6938,"level":{"level":4,"range":119,"name":"三线城市"},"y":2999,"cityNo":98},"沧州":{"name":"沧州市","province":"河北省运河区解放西路39号","lat":38.3037259637,"lon":116.8330125167,"x":6848,"level":{"level":4,"range":119,"name":"三线城市"},"y":6006,"cityNo":99},"抚顺":{"name":"抚顺市","province":"辽宁省顺城区临江东路","lat":41.8774781778,"lon":123.9520979085,"x":8107,"level":{"level":4,"range":119,"name":"三线城市"},"y":6903,"cityNo":100},"襄阳":{"name":"襄阳市","province":"湖北省襄城区檀溪路219号","lat":32.0110287292,"lon":112.1163623347,"x":5961,"level":{"level":4,"range":119,"name":"三线城市"},"y":4554,"cityNo":101},"上饶":{"name":"上饶市","province":"江西省信州区","lat":28.4577563447,"lon":117.9384305288,"x":7107,"level":{"level":4,"range":119,"name":"三线城市"},"y":3759,"cityNo":102},"营口":{"name":"营口市","province":"辽宁省站前区渤海大街西1号","lat":40.6658740934,"lon":122.2299558795,"x":7814,"level":{"level":4,"range":119,"name":"三线城市"},"y":6596,"cityNo":103},"三明":{"name":"三明市","province":"福建省梅列区东新二路","lat":26.2674032991,"lon":117.6341672119,"x":7058,"level":{"level":4,"range":119,"name":"三线城市"},"y":3267,"cityNo":104},"蚌埠":{"name":"蚌埠市","province":"安徽省蚌山区东海大道3115号","lat":32.9172795999,"lon":117.3834500596,"x":6976,"level":{"level":4,"range":119,"name":"三线城市"},"y":4765,"cityNo":105},"丽水":{"name":"丽水市","province":"浙江省莲都区花园路","lat":28.4709300157,"lon":119.9183999068,"x":7500,"level":{"level":4,"range":119,"name":"三线城市"},"y":3774,"cityNo":106},"岳阳":{"name":"岳阳市","province":"湖南省岳阳楼区金鹗中路135号","lat":29.3595941855,"lon":113.1227569813,"x":6152,"level":{"level":4,"range":119,"name":"三线城市"},"y":3953,"cityNo":107},"清远":{"name":"清远市","province":"广东省清城区人民二路18号","lat":23.6844595976,"lon":113.0506872813,"x":6131,"level":{"level":4,"range":119,"name":"三线城市"},"y":2683,"cityNo":108},"荆州":{"name":"荆州市","province":"湖北省沙市区江津西路262号","lat":30.337641333,"lon":112.2336942605,"x":5979,"level":{"level":4,"range":119,"name":"三线城市"},"y":4175,"cityNo":109},"泰安":{"name":"泰安市","province":"山东省泰山区望岳东路3号","lat":36.1996448611,"lon":117.0822586166,"x":6903,"level":{"level":4,"range":119,"name":"三线城市"},"y":5517,"cityNo":110},"衢州":{"name":"衢州市","province":"浙江省柯城区三江东路","lat":28.9729924666,"lon":118.855132155,"x":7286,"level":{"level":4,"range":119,"name":"三线城市"},"y":3880,"cityNo":111},"盘锦":{"name":"盘锦市","province":"辽宁省兴隆台区市府大街18","lat":41.1178505609,"lon":122.0651418276,"x":7779,"level":{"level":4,"range":119,"name":"三线城市"},"y":6702,"cityNo":112},"东营":{"name":"东营市","province":"山东省东营区府前大街77号","lat":37.4326395731,"lon":118.6691472763,"x":7192,"level":{"level":4,"range":119,"name":"三线城市"},"y":5810,"cityNo":113},"南阳":{"name":"南阳市","province":"河南省卧龙区中州中路291号","lat":32.9926323408,"lon":112.5225048366,"x":6042,"level":{"level":4,"range":119,"name":"三线城市"},"y":4777,"cityNo":114},"马鞍山":{"name":"马鞍山市","province":"安徽省雨山区太白大道2008","lat":31.6725942294,"lon":118.5015499626,"x":7199,"level":{"level":4,"range":119,"name":"三线城市"},"y":4487,"cityNo":115},"南充":{"name":"南充市","province":"四川省顺庆区","lat":30.8401442884,"lon":106.1064941355,"x":4785,"level":{"level":4,"range":119,"name":"三线城市"},"y":4325,"cityNo":116},"西宁":{"name":"西宁市","province":"青海省城中区南关街43号","lat":36.6171840345,"lon":101.7758011664,"x":4043,"level":{"level":4,"range":119,"name":"三线城市"},"y":5696,"cityNo":117},"孝感":{"name":"孝感市","province":"湖北省孝南区城站路71号","lat":30.9272872429,"lon":113.9109641086,"x":6308,"level":{"level":4,"range":119,"name":"三线城市"},"y":4306,"cityNo":118},"齐齐哈尔":{"name":"齐齐哈尔市","province":"黑龙江省建华区新明街27号","lat":47.3521866734,"lon":123.9111563984,"x":8017,"level":{"level":4,"range":119,"name":"三线城市"},"y":8242,"cityNo":119},"乐山":{"name":"乐山市","province":"四川省市中区泊水街97号","lat":29.5548247112,"lon":103.7634500059,"x":4310,"level":{"level":5,"range":209,"name":"四线城市"},"y":4061,"cityNo":120},"湘潭":{"name":"湘潭市","province":"湖南省岳塘区湘潭大道辅路","lat":27.8330518358,"lon":112.9385693207,"x":6114,"level":{"level":5,"range":209,"name":"四线城市"},"y":3610,"cityNo":121},"遵义":{"name":"遵义市","province":"贵州省汇川区人民路343","lat":27.7289641118,"lon":106.92359899,"x":4914,"level":{"level":5,"range":209,"name":"四线城市"},"y":3617,"cityNo":122},"宿迁":{"name":"宿迁市","province":"江苏省宿城区南湖路1号","lat":33.9632942964,"lon":118.2699225722,"x":7140,"level":{"level":5,"range":209,"name":"四线城市"},"y":5008,"cityNo":123},"新乡":{"name":"新乡市","province":"河南省红旗区","lat":35.3044844993,"lon":113.9211747432,"x":6311,"level":{"level":5,"range":209,"name":"四线城市"},"y":5305,"cityNo":124},"信阳":{"name":"信阳市","province":"河南省平桥区新五大道","lat":32.1488229792,"lon":114.0853238116,"x":6342,"level":{"level":5,"range":209,"name":"四线城市"},"y":4583,"cityNo":125},"滁州":{"name":"滁州市","province":"安徽省琅琊区","lat":32.2570183659,"lon":118.3279203416,"x":7161,"level":{"level":5,"range":209,"name":"四线城市"},"y":4619,"cityNo":126},"锦州":{"name":"锦州市","province":"辽宁省太和区市府路69号","lat":41.0931189167,"lon":121.1208193138,"x":7609,"level":{"level":5,"range":209,"name":"四线城市"},"y":6688,"cityNo":127},"潮州":{"name":"潮州市","province":"广东省湘桥区枫春路","lat":23.6591250603,"lon":116.6188815047,"x":6863,"level":{"level":5,"range":209,"name":"四线城市"},"y":2681,"cityNo":128},"黄冈":{"name":"黄冈市","province":"湖北省黄州区七一路10-55号","lat":30.4561368072,"lon":114.8671108707,"x":6495,"level":{"level":5,"range":209,"name":"四线城市"},"y":4200,"cityNo":129},"开封":{"name":"开封市","province":"河南省开封市晋安路58","lat":34.7981418276,"lon":114.3017513122,"x":6383,"level":{"level":5,"range":209,"name":"四线城市"},"y":5188,"cityNo":130},"德阳":{"name":"德阳市","province":"四川省旌阳区长江西路1段-37号","lat":31.13309,"lon":104.404507,"x":4458,"level":{"level":5,"range":209,"name":"四线城市"},"y":4409,"cityNo":131},"德州":{"name":"德州市","province":"山东省德城区东风东路1566号","lat":37.441299,"lon":116.36555,"x":6765,"level":{"level":5,"range":209,"name":"四线城市"},"y":5803,"cityNo":132},"梅州":{"name":"梅州市","province":"广东省梅江区新中路1号","lat":24.294165,"lon":116.129232,"x":6761,"level":{"level":5,"range":209,"name":"四线城市"},"y":2821,"cityNo":133},"鄂尔多斯":{"name":"鄂尔多斯市","province":"内蒙古自治区东胜区","lat":39.6072431063,"lon":109.7753417014,"x":5554,"level":{"level":5,"range":209,"name":"四线城市"},"y":6318,"cityNo":134},"邢台":{"name":"邢台市","province":"河北省桥东区红星街139号","lat":37.070086515,"lon":114.4989144252,"x":6418,"level":{"level":5,"range":209,"name":"四线城市"},"y":5713,"cityNo":135},"茂名":{"name":"茂名市","province":"广东省茂南区油城六路2号","lat":21.6660895391,"lon":110.9209211073,"x":5685,"level":{"level":5,"range":209,"name":"四线城市"},"y":2239,"cityNo":136},"大理白族自治州":{"name":"大理白族自治州","province":"云南省大理市","lat":25.6094289341,"lon":100.2666177242,"x":3548,"level":{"level":5,"range":209,"name":"四线城市"},"y":3231,"cityNo":137},"韶关":{"name":"韶关市","province":"广东省浈江区风度北路129号","lat":24.8131701868,"lon":113.5919855163,"x":6242,"level":{"level":5,"range":209,"name":"四线城市"},"y":2934,"cityNo":138},"商丘":{"name":"商丘市","province":"河南省梁园区府前路","lat":34.4155222671,"lon":115.650682656,"x":6639,"level":{"level":5,"range":209,"name":"四线城市"},"y":5102,"cityNo":139},"安庆":{"name":"安庆市","province":"安徽省迎江区湖心中路61号","lat":30.5276255267,"lon":117.05199879,"x":6922,"level":{"level":5,"range":209,"name":"四线城市"},"y":4222,"cityNo":140},"黄石":{"name":"黄石市","province":"湖北省下陆区杭州东路1","lat":30.2017472395,"lon":115.033509615,"x":6528,"level":{"level":5,"range":209,"name":"四线城市"},"y":4143,"cityNo":141},"六安":{"name":"六安市","province":"安徽省金安区","lat":31.7371664595,"lon":116.5148122455,"x":6813,"level":{"level":5,"range":209,"name":"四线城市"},"y":4494,"cityNo":142},"玉林":{"name":"玉林市","province":"广西壮族自治区玉州区","lat":22.6565801379,"lon":110.1771060484,"x":5536,"level":{"level":5,"range":209,"name":"四线城市"},"y":2463,"cityNo":143},"宜春":{"name":"宜春市","province":"江西省袁州区府前路","lat":27.8182609305,"lon":114.4113193828,"x":6407,"level":{"level":5,"range":209,"name":"四线城市"},"y":3606,"cityNo":144},"北海":{"name":"北海市","province":"广西壮族自治区海城区和平路东二巷2号","lat":21.483480868,"lon":109.1156182712,"x":5308,"level":{"level":5,"range":209,"name":"四线城市"},"y":2208,"cityNo":145},"牡丹江":{"name":"牡丹江市","province":"黑龙江省东安区兴隆街","lat":44.5484549608,"lon":129.626112237,"x":9057,"level":{"level":5,"range":209,"name":"四线城市"},"y":7628,"cityNo":146},"张家口":{"name":"张家口市","province":"河北省桥东区长城西大街","lat":40.7662563244,"lon":114.8799900167,"x":6485,"level":{"level":5,"range":209,"name":"四线城市"},"y":6582,"cityNo":147},"梧州":{"name":"梧州市","province":"广西壮族自治区长洲区新兴三路1号","lat":23.4795793001,"lon":111.2740976258,"x":5765,"level":{"level":5,"range":209,"name":"四线城市"},"y":2642,"cityNo":148},"日照":{"name":"日照市","province":"山东省东港区北京路198号","lat":35.4167642173,"lon":119.5211927661,"x":7367,"level":{"level":5,"range":209,"name":"四线城市"},"y":5349,"cityNo":149},"咸宁":{"name":"咸宁市","province":"湖北省咸安区双鹤路16","lat":29.8436547805,"lon":114.317011342,"x":6388,"level":{"level":5,"range":209,"name":"四线城市"},"y":4062,"cityNo":150},"常德":{"name":"常德市","province":"湖南省武陵区朗州路120号","lat":29.0346542332,"lon":111.6928950795,"x":5869,"level":{"level":5,"range":209,"name":"四线城市"},"y":3883,"cityNo":151},"佳木斯":{"name":"佳木斯市","province":"黑龙江省佳木斯市长安路2666号","lat":46.7970723124,"lon":130.3127807403,"x":9120,"level":{"level":5,"range":209,"name":"四线城市"},"y":8193,"cityNo":152},"红河哈尼族彝族自治州":{"name":"红河哈尼族彝族自治州","province":"云南省蒙自市天马路67号","lat":23.3667604741,"lon":103.3734471399,"x":4142,"level":{"level":5,"range":209,"name":"四线城市"},"y":2684,"cityNo":153},"黔东南苗族侗族自治州":{"name":"黔东南苗族侗族自治州","province":"贵州省凯里市北京路46号","lat":26.5870365537,"lon":107.9787986566,"x":5115,"level":{"level":5,"range":209,"name":"四线城市"},"y":3353,"cityNo":154},"阳江":{"name":"阳江市","province":"广东省江城区东风二路62号","lat":21.8609969585,"lon":111.9772172424,"x":5905,"level":{"level":5,"range":209,"name":"四线城市"},"y":2279,"cityNo":155},"晋中":{"name":"晋中市","province":"山西省榆次区羊毫街114号","lat":37.6864168473,"lon":112.746200575,"x":6093,"level":{"level":5,"range":209,"name":"四线城市"},"y":5858,"cityNo":156},"渭南":{"name":"渭南市","province":"陕西省临渭区东风街83号","lat":34.5012874256,"lon":109.5047575525,"x":5472,"level":{"level":5,"range":209,"name":"四线城市"},"y":5132,"cityNo":157},"呼伦贝尔":{"name":"呼伦贝尔市","province":"内蒙古自治区海拉尔区胜利大街24","lat":49.2102044451,"lon":119.7583255805,"x":7291,"level":{"level":5,"range":209,"name":"四线城市"},"y":8678,"cityNo":158},"恩施土家族苗族自治州":{"name":"恩施土家族苗族自治州","province":"湖北省恩施市舞阳大道一巷21号","lat":30.2746603551,"lon":109.4832791111,"x":5440,"level":{"level":5,"range":209,"name":"四线城市"},"y":4171,"cityNo":159},"河源":{"name":"河源市","province":"广东省源城区沿江路19号","lat":23.7461058985,"lon":114.6958547712,"x":6468,"level":{"level":5,"range":209,"name":"四线城市"},"y":2696,"cityNo":160},"郴州":{"name":"郴州市","province":"湖南省北湖区五岭大道9号","lat":25.773541379,"lon":113.0092387237,"x":6125,"level":{"level":5,"range":209,"name":"四线城市"},"y":3149,"cityNo":161},"阜阳":{"name":"阜阳市","province":"安徽省颍州区清河东路539号","lat":32.8917690084,"lon":115.8089244105,"x":6673,"level":{"level":5,"range":209,"name":"四线城市"},"y":4754,"cityNo":162},"聊城":{"name":"聊城市","province":"山东省东昌府区东昌西路24号","lat":36.4570290578,"lon":115.9797553791,"x":6696,"level":{"level":5,"range":209,"name":"四线城市"},"y":5573,"cityNo":163},"大同":{"name":"大同市","province":"山西省城区迎宾街7号","lat":40.0752363773,"lon":113.2930538393,"x":6197,"level":{"level":5,"range":209,"name":"四线城市"},"y":6418,"cityNo":164},"宝鸡":{"name":"宝鸡市","province":"陕西省金台区","lat":34.3645472211,"lon":107.2330868103,"x":5039,"level":{"level":5,"range":209,"name":"四线城市"},"y":5116,"cityNo":165},"许昌":{"name":"许昌市","province":"河南省魏都区建安大道1516号","lat":34.0369156277,"lon":113.8462214005,"x":6296,"level":{"level":5,"range":209,"name":"四线城市"},"y":5014,"cityNo":166},"赤峰":{"name":"赤峰市","province":"内蒙古自治区松山区玉龙大街","lat":42.2536098432,"lon":118.8826906526,"x":7197,"level":{"level":5,"range":209,"name":"四线城市"},"y":6951,"cityNo":167},"运城":{"name":"运城市","province":"山西省盐湖区河东街248","lat":35.0271242901,"lon":111.0015031119,"x":5758,"level":{"level":5,"range":209,"name":"四线城市"},"y":5246,"cityNo":168},"安阳":{"name":"安阳市","province":"河南省文峰区紫薇大道","lat":36.0998520133,"lon":114.3867000688,"x":6398,"level":{"level":5,"range":209,"name":"四线城市"},"y":5489,"cityNo":169},"临汾":{"name":"临汾市","province":"山西省尧都区市府街","lat":36.0881527634,"lon":111.5127848082,"x":5859,"level":{"level":5,"range":209,"name":"四线城市"},"y":5489,"cityNo":170},"宣城":{"name":"宣城市","province":"安徽省宣州区鳌峰中路49号","lat":30.9428702884,"lon":118.75382127,"x":7252,"level":{"level":5,"range":209,"name":"四线城市"},"y":4324,"cityNo":171},"曲靖":{"name":"曲靖市","province":"云南省麒麟区文昌街80号","lat":25.4930956508,"lon":103.7939659645,"x":4258,"level":{"level":5,"range":209,"name":"四线城市"},"y":3152,"cityNo":172},"西双版纳傣族自治州":{"name":"西双版纳傣族自治州","province":"云南省景洪市宣慰大道69号","lat":22.0101396541,"lon":100.7963203399,"x":3588,"level":{"level":5,"range":209,"name":"四线城市"},"y":2423,"cityNo":173},"邵阳":{"name":"邵阳市","province":"湖南省大祥区城北路6号","lat":27.2422371467,"lon":111.462079958,"x":5817,"level":{"level":5,"range":209,"name":"四线城市"},"y":3481,"cityNo":174},"葫芦岛":{"name":"葫芦岛市","province":"辽宁省龙港区龙湾大街15号","lat":40.709587702,"lon":120.8316221848,"x":7561,"level":{"level":5,"range":209,"name":"四线城市"},"y":6595,"cityNo":175},"平顶山":{"name":"平顶山市","province":"河南省新华区市政大楼东西路","lat":33.7676083178,"lon":113.1862369274,"x":6170,"level":{"level":5,"range":209,"name":"四线城市"},"y":4953,"cityNo":176},"辽阳":{"name":"辽阳市","province":"辽宁省太子河区","lat":41.265737,"lon":123.2308833776,"x":7987,"level":{"level":5,"range":209,"name":"四线城市"},"y":6749,"cityNo":177},"菏泽":{"name":"菏泽市","province":"山东省牡丹区中华路1009","lat":35.2340369469,"lon":115.4746887304,"x":6604,"level":{"level":5,"range":209,"name":"四线城市"},"y":5290,"cityNo":178},"本溪":{"name":"本溪市","province":"辽宁省溪湖区","lat":41.4848729436,"lon":123.6801808079,"x":8064,"level":{"level":5,"range":209,"name":"四线城市"},"y":6806,"cityNo":179},"驻马店":{"name":"驻马店市","province":"河南省驿城区G107(开源大道)","lat":33.0135961415,"lon":114.0163994662,"x":6329,"level":{"level":5,"range":209,"name":"四线城市"},"y":4780,"cityNo":180},"汕尾":{"name":"汕尾市","province":"广东省城区汕尾大道","lat":22.7881843483,"lon":115.3704652978,"x":6608,"level":{"level":5,"range":209,"name":"四线城市"},"y":2484,"cityNo":181},"焦作":{"name":"焦作市","province":"河南省解放区人民路889号","lat":35.2155036018,"lon":113.235647886,"x":6181,"level":{"level":5,"range":209,"name":"四线城市"},"y":5285,"cityNo":182},"黄山":{"name":"黄山市","province":"安徽省屯溪区长干路108号","lat":29.7181971895,"lon":118.3337919924,"x":7178,"level":{"level":5,"range":209,"name":"四线城市"},"y":4045,"cityNo":183},"怀化":{"name":"怀化市","province":"湖南省鹤城区府前路北","lat":27.5725776095,"lon":109.9971437621,"x":5526,"level":{"level":5,"range":209,"name":"四线城市"},"y":3561,"cityNo":184},"四平":{"name":"四平市","province":"吉林省铁西区市府路2号","lat":43.1635491214,"lon":124.3440510886,"x":8157,"level":{"level":5,"range":209,"name":"四线城市"},"y":7216,"cityNo":185},"榆林":{"name":"榆林市","province":"陕西省榆阳区青山东路","lat":38.2847060783,"lon":109.7293771169,"x":5538,"level":{"level":5,"range":209,"name":"四线城市"},"y":6007,"cityNo":186},"十堰":{"name":"十堰市","province":"湖北省茅箭区北京中路8","lat":32.6313064137,"lon":110.7926337959,"x":5708,"level":{"level":5,"range":209,"name":"四线城市"},"y":4699,"cityNo":187},"宜宾":{"name":"宜宾市","province":"四川省翠屏区蜀南大道西段-8号","lat":28.7551577751,"lon":104.6406244887,"x":4472,"level":{"level":5,"range":209,"name":"四线城市"},"y":3871,"cityNo":188},"滨州":{"name":"滨州市","province":"山东省滨城区黄河五路385","lat":37.388204,"lon":117.977245,"x":7064,"level":{"level":5,"range":209,"name":"四线城市"},"y":5797,"cityNo":189},"抚州":{"name":"抚州市","province":"江西省临川区赣东大道33号","lat":27.954887,"lon":116.364656,"x":6796,"level":{"level":5,"range":209,"name":"四线城市"},"y":3640,"cityNo":190},"淮南":{"name":"淮南市","province":"安徽省田家庵区洞山中路9号","lat":32.6275208189,"lon":116.994391822,"x":6902,"level":{"level":5,"range":209,"name":"四线城市"},"y":4698,"cityNo":191},"周口":{"name":"周口市","province":"河南省川汇区庆丰东路","lat":33.6272816677,"lon":114.6914543156,"x":6458,"level":{"level":5,"range":209,"name":"四线城市"},"y":4920,"cityNo":192},"黔南布依族苗族自治州":{"name":"黔南布依族苗族自治州","province":"贵州省都匀市环东中路117号","lat":26.2576924786,"lon":107.5181142958,"x":5019,"level":{"level":5,"range":209,"name":"四线城市"},"y":3283,"cityNo":193},"泸州":{"name":"泸州市","province":"四川省江阳区江阳西路1号","lat":28.8747632457,"lon":105.4386570385,"x":4632,"level":{"level":5,"range":209,"name":"四线城市"},"y":3889,"cityNo":194},"玉溪":{"name":"玉溪市","province":"云南省红塔区聂耳路34号","lat":24.355051922,"lon":102.5453051237,"x":3988,"level":{"level":5,"range":209,"name":"四线城市"},"y":2916,"cityNo":195},"眉山":{"name":"眉山市","province":"四川省东坡区东坡大道北一段","lat":30.0795993193,"lon":103.848091194,"x":4335,"level":{"level":5,"range":209,"name":"四线城市"},"y":4178,"cityNo":196},"通化":{"name":"通化市","province":"吉林省东昌区龙泉路40号","lat":41.7260396266,"lon":125.9341155436,"x":8464,"level":{"level":5,"range":209,"name":"四线城市"},"y":6891,"cityNo":197},"宿州":{"name":"宿州市","province":"安徽省埇桥区银河一路506","lat":33.6477411219,"lon":116.9590004984,"x":6891,"level":{"level":5,"range":209,"name":"四线城市"},"y":4930,"cityNo":198},"枣庄":{"name":"枣庄市","province":"山东省薛城区","lat":34.8108511499,"lon":117.3178216756,"x":6954,"level":{"level":5,"range":209,"name":"四线城市"},"y":5198,"cityNo":199},"内江":{"name":"内江市","province":"四川省市中区新华路20号","lat":29.5827774769,"lon":105.0551969712,"x":4565,"level":{"level":5,"range":209,"name":"四线城市"},"y":4052,"cityNo":200},"遂宁":{"name":"遂宁市","province":"四川省船山区","lat":30.5355378916,"lon":105.5895112565,"x":4681,"level":{"level":5,"range":209,"name":"四线城市"},"y":4261,"cityNo":201},"吉安":{"name":"吉安市","province":"江西省吉州区鹭洲东路1号","lat":27.117135338,"lon":114.9887662287,"x":6524,"level":{"level":5,"range":209,"name":"四线城市"},"y":3450,"cityNo":202},"通辽":{"name":"通辽市","province":"内蒙古自治区科尔沁区阿古拉大街","lat":43.6496682814,"lon":122.2380390837,"x":7778,"level":{"level":5,"range":209,"name":"四线城市"},"y":7312,"cityNo":203},"景德镇":{"name":"景德镇市","province":"江西省昌江区瓷都大道686号","lat":29.2711722426,"lon":117.1728586121,"x":6952,"level":{"level":5,"range":209,"name":"四线城市"},"y":3939,"cityNo":204},"阜新":{"name":"阜新市","province":"辽宁省细河区中华路45号","lat":42.0195282235,"lon":121.6649599081,"x":7696,"level":{"level":5,"range":209,"name":"四线城市"},"y":6914,"cityNo":205},"雅安":{"name":"雅安市","province":"四川省雨城区正和路","lat":30.0135364913,"lon":103.0409153628,"x":4175,"level":{"level":5,"range":209,"name":"四线城市"},"y":4174,"cityNo":206},"铁岭":{"name":"铁岭市","province":"辽宁省铁岭县金沙江路28号","lat":42.2214023033,"lon":123.7198947856,"x":8061,"level":{"level":5,"range":209,"name":"四线城市"},"y":6983,"cityNo":207},"承德":{"name":"承德市","province":"河北省双桥区府前路","lat":40.9499865609,"lon":117.9566804804,"x":7040,"level":{"level":5,"range":209,"name":"四线城市"},"y":6634,"cityNo":208},"娄底":{"name":"娄底市","province":"湖南省娄星区S209(湘中大道)","lat":27.7006193894,"lon":111.989071251,"x":5924,"level":{"level":5,"range":209,"name":"四线城市"},"y":3582,"cityNo":209},"克拉玛依":{"name":"克拉玛依市","province":"新疆维吾尔自治区克拉玛依区迎宾路60号","lat":45.5790745417,"lon":84.8868973043,"x":1302,"level":{"level":6,"range":338,"name":"五线城市"},"y":8206,"cityNo":210},"长治":{"name":"长治市","province":"山西省城区英雄中路68号","lat":36.1952913596,"lon":113.1096970096,"x":6158,"level":{"level":6,"range":338,"name":"五线城市"},"y":5511,"cityNo":211},"永州":{"name":"永州市","province":"湖南省冷水滩区逸云路1号-12楼","lat":26.4231928746,"lon":111.608189452,"x":5844,"level":{"level":6,"range":338,"name":"五线城市"},"y":3297,"cityNo":212},"绥化":{"name":"绥化市","province":"黑龙江省北林区迎宾路2号","lat":46.6518922443,"lon":126.9623091289,"x":8550,"level":{"level":6,"range":338,"name":"五线城市"},"y":8104,"cityNo":213},"巴音郭楞蒙古自治州":{"name":"巴音郭楞蒙古自治州","province":"新疆维吾尔自治区库尔勒市巴音路","lat":41.7626190604,"lon":86.1426208265,"x":1355,"level":{"level":6,"range":338,"name":"五线城市"},"y":7254,"cityNo":214},"拉萨":{"name":"拉萨市","province":"西藏自治区城关区太阳岛一路10","lat":29.6467182663,"lon":91.1127022311,"x":1835,"level":{"level":6,"range":338,"name":"五线城市"},"y":4339,"cityNo":215},"云浮":{"name":"云浮市","province":"广东省云城区府前路1号","lat":22.9176586896,"lon":112.0393808112,"x":5921,"level":{"level":6,"range":338,"name":"五线城市"},"y":2514,"cityNo":216},"益阳":{"name":"益阳市","province":"湖南省赫山区梓山西路8","lat":28.5569411521,"lon":112.3493726733,"x":5998,"level":{"level":6,"range":338,"name":"五线城市"},"y":3774,"cityNo":217},"百色":{"name":"百色市","province":"广西壮族自治区右江区向阳路6号","lat":23.9053414532,"lon":106.6145017319,"x":4813,"level":{"level":6,"range":338,"name":"五线城市"},"y":2767,"cityNo":218},"资阳":{"name":"资阳市","province":"四川省雁江区广场路9号","lat":30.1316478807,"lon":104.6254244686,"x":4487,"level":{"level":6,"range":338,"name":"五线城市"},"y":4180,"cityNo":219},"荆门":{"name":"荆门市","province":"湖北省东宝区象山大道53号","lat":31.0375899947,"lon":112.1937073004,"x":5973,"level":{"level":6,"range":338,"name":"五线城市"},"y":4333,"cityNo":220},"松原":{"name":"松原市","province":"吉林省宁江区沿江东路339号","lat":45.1393031082,"lon":124.818815067,"x":8208,"level":{"level":6,"range":338,"name":"五线城市"},"y":7703,"cityNo":221},"凉山彝族自治州":{"name":"凉山彝族自治州","province":"四川省西昌市三岔口南路55号-附8号","lat":27.8850091918,"lon":102.2658329699,"x":3989,"level":{"level":6,"range":338,"name":"五线城市"},"y":3707,"cityNo":222},"达州":{"name":"达州市","province":"四川省通川区永兴路2号","lat":31.210765931,"lon":107.4634996703,"x":5053,"level":{"level":6,"range":338,"name":"五线城市"},"y":4396,"cityNo":223},"伊犁哈萨克自治州":{"name":"伊犁哈萨克自治州","province":"新疆维吾尔自治区伊宁市解放南路65","lat":43.9155962573,"lon":81.3209926573,"x":612,"level":{"level":6,"range":338,"name":"五线城市"},"y":7926,"cityNo":224},"广安":{"name":"广安市","province":"四川省广安区思源大道2号","lat":30.4587550669,"lon":106.6294368826,"x":4883,"level":{"level":6,"range":338,"name":"五线城市"},"y":4234,"cityNo":225},"自贡":{"name":"自贡市","province":"四川省自流井区丹桂大街443号","lat":29.3421444509,"lon":104.7757423245,"x":4507,"level":{"level":6,"range":338,"name":"五线城市"},"y":4001,"cityNo":226},"汉中":{"name":"汉中市","province":"陕西省汉台区民主街43号","lat":33.0694670043,"lon":107.0188105963,"x":4985,"level":{"level":6,"range":338,"name":"五线城市"},"y":4822,"cityNo":227},"朝阳":{"name":"朝阳市","province":"辽宁省双塔区红星路二段","lat":41.5713893018,"lon":120.4450407788,"x":7483,"level":{"level":6,"range":338,"name":"五线城市"},"y":6797,"cityNo":228},"漯河":{"name":"漯河市","province":"河南省郾城区淮河路10号","lat":33.5829700283,"lon":114.0107362711,"x":6327,"level":{"level":6,"range":338,"name":"五线城市"},"y":4910,"cityNo":229},"钦州":{"name":"钦州市","province":"广西壮族自治区钦南区永福东大街11号","lat":21.9837463841,"lon":108.6505889023,"x":5215,"level":{"level":6,"range":338,"name":"五线城市"},"y":2322,"cityNo":230},"贵港":{"name":"贵港市","province":"广西壮族自治区港北区荷城路888号","lat":23.1145366397,"lon":109.5946158397,"x":5418,"level":{"level":6,"range":338,"name":"五线城市"},"y":2568,"cityNo":231},"安顺":{"name":"安顺市","province":"贵州省西秀区","lat":26.2566268317,"lon":105.9442200606,"x":4702,"level":{"level":6,"range":338,"name":"五线城市"},"y":3297,"cityNo":232},"鄂州":{"name":"鄂州市","province":"湖北省鄂城区","lat":30.3936092383,"lon":114.8900136367,"x":6500,"level":{"level":6,"range":338,"name":"五线城市"},"y":4186,"cityNo":233},"广元":{"name":"广元市","province":"四川省利州区人民路12号","lat":32.4377136745,"lon":105.840037405,"x":4752,"level":{"level":6,"range":338,"name":"五线城市"},"y":4689,"cityNo":234},"河池":{"name":"河池市","province":"广西壮族自治区金城江区新建东路13号","lat":24.6957202199,"lon":108.0811322461,"x":5119,"level":{"level":6,"range":338,"name":"五线城市"},"y":2930,"cityNo":235},"鹰潭":{"name":"鹰潭市","province":"江西省月湖区府前路3号","lat":28.2631859501,"lon":117.0638394692,"x":6934,"level":{"level":6,"range":338,"name":"五线城市"},"y":3712,"cityNo":236},"乌兰察布":{"name":"乌兰察布市","province":"内蒙古自治区集宁区","lat":40.9928806556,"lon":113.1253739329,"x":6168,"level":{"level":6,"range":338,"name":"五线城市"},"y":6636,"cityNo":237},"铜陵":{"name":"铜陵市","province":"安徽省铜陵县湖东路666号","lat":30.9474324063,"lon":117.8069037928,"x":7068,"level":{"level":6,"range":338,"name":"五线城市"},"y":4320,"cityNo":238},"昌吉回族自治州":{"name":"昌吉回族自治州","province":"新疆维吾尔自治区昌吉市延安北路67号","lat":44.0097999698,"lon":87.3052777078,"x":1651,"level":{"level":6,"range":338,"name":"五线城市"},"y":7754,"cityNo":239},"衡水":{"name":"衡水市","province":"河北省桃城区","lat":37.7381951118,"lon":115.663122622,"x":6634,"level":{"level":6,"range":338,"name":"五线城市"},"y":5871,"cityNo":240},"黔西南布依族苗族自治州":{"name":"黔西南布依族苗族自治州","province":"贵州省兴义市遵义路7号","lat":25.0909028587,"lon":104.9039631377,"x":4478,"level":{"level":6,"range":338,"name":"五线城市"},"y":3049,"cityNo":241},"濮阳":{"name":"濮阳市","province":"河南省华龙区人民路51号","lat":35.7617752161,"lon":115.0231526215,"x":6518,"level":{"level":6,"range":338,"name":"五线城市"},"y":5411,"cityNo":242},"锡林郭勒盟":{"name":"锡林郭勒盟","province":"内蒙古自治区锡林浩特市","lat":43.9308999794,"lon":116.0410618815,"x":6685,"level":{"level":6,"range":338,"name":"五线城市"},"y":7346,"cityNo":243},"巴彦淖尔":{"name":"巴彦淖尔市","province":"内蒙古自治区临河区","lat":40.7417039706,"lon":107.3821978123,"x":5129,"level":{"level":6,"range":338,"name":"五线城市"},"y":6601,"cityNo":244},"鸡西":{"name":"鸡西市","province":"黑龙江省鸡冠区红旗路18号","lat":45.2930885606,"lon":130.9619895953,"x":9270,"level":{"level":6,"range":338,"name":"五线城市"},"y":7833,"cityNo":245},"贺州":{"name":"贺州市","province":"广西壮族自治区八步区贺州大道1号","lat":24.4065048674,"lon":111.561398173,"x":5827,"level":{"level":6,"range":338,"name":"五线城市"},"y":2847,"cityNo":246},"防城港":{"name":"防城港市","province":"广西壮族自治区港口区迎宾街","lat":21.6891608449,"lon":108.3500800735,"x":5151,"level":{"level":6,"range":338,"name":"五线城市"},"y":2259,"cityNo":247},"兴安盟":{"name":"兴安盟","province":"内蒙古自治区乌兰浩特市","lat":46.0801186549,"lon":122.0317434264,"x":7712,"level":{"level":6,"range":338,"name":"五线城市"},"y":7907,"cityNo":248},"白山":{"name":"白山市","province":"吉林省浑江区铁北街28-1号","lat":41.9314553172,"lon":126.4170568505,"x":8547,"level":{"level":6,"range":338,"name":"五线城市"},"y":6946,"cityNo":249},"三门峡":{"name":"三门峡市","province":"河南省湖滨区崤山东路辅路","lat":34.7734057116,"lon":111.1940701407,"x":5794,"level":{"level":6,"range":338,"name":"五线城市"},"y":5187,"cityNo":250},"忻州":{"name":"忻州市","province":"山西省忻府区长征东街21号","lat":38.416144061,"lon":112.7277051931,"x":6091,"level":{"level":6,"range":338,"name":"五线城市"},"y":6028,"cityNo":251},"双鸭山":{"name":"双鸭山市","province":"黑龙江省尖山区新兴大街266号","lat":46.6445967922,"lon":131.1509463649,"x":9267,"level":{"level":6,"range":338,"name":"五线城市"},"y":8170,"cityNo":252},"楚雄彝族自治州":{"name":"楚雄彝族自治州","province":"云南省楚雄市丰胜路667","lat":25.0484830019,"lon":101.5264573353,"x":3792,"level":{"level":6,"range":338,"name":"五线城市"},"y":3085,"cityNo":253},"新余":{"name":"新余市","province":"江西省渝水区仙来中大道288号","lat":27.8213035585,"lon":114.9125153658,"x":6507,"level":{"level":6,"range":338,"name":"五线城市"},"y":3607,"cityNo":254},"来宾":{"name":"来宾市","province":"广西壮族自治区兴宾区人民路1号","lat":23.7530568299,"lon":109.2169326177,"x":5345,"level":{"level":6,"range":338,"name":"五线城市"},"y":2712,"cityNo":255},"淮北":{"name":"淮北市","province":"安徽省相山区","lat":33.9572818561,"lon":116.793040052,"x":6858,"level":{"level":6,"range":338,"name":"五线城市"},"y":5000,"cityNo":256},"亳州":{"name":"亳州市","province":"安徽省谯城区希夷大道369","lat":33.8459891353,"lon":115.7728690797,"x":6664,"level":{"level":6,"range":338,"name":"五线城市"},"y":4972,"cityNo":257},"湘西土家族苗族自治州":{"name":"湘西土家族苗族自治州","province":"湖南省吉首市人民北路58号","lat":28.3150574659,"lon":109.7341775654,"x":5478,"level":{"level":6,"range":338,"name":"五线城市"},"y":3729,"cityNo":258},"吕梁":{"name":"吕梁市","province":"山西省离石区永宁中路59号","lat":37.5176186097,"lon":111.138000868,"x":5794,"level":{"level":6,"range":338,"name":"五线城市"},"y":5822,"cityNo":259},"攀枝花":{"name":"攀枝花市","province":"四川省东区炳草岗大街2号","lat":26.5857288079,"lon":101.716961423,"x":3857,"level":{"level":6,"range":338,"name":"五线城市"},"y":3425,"cityNo":260},"晋城":{"name":"晋城市","province":"山西省城区凤台西街289号","lat":35.4910131392,"lon":112.8453804486,"x":6108,"level":{"level":6,"range":338,"name":"五线城市"},"y":5349,"cityNo":261},"延安":{"name":"延安市","province":"陕西省宝塔区南关街57号","lat":36.5853856801,"lon":109.4843283524,"x":5481,"level":{"level":6,"range":338,"name":"五线城市"},"y":5613,"cityNo":262},"毕节":{"name":"毕节市","province":"贵州省七星关区","lat":27.2878989566,"lon":105.2891319034,"x":4583,"level":{"level":6,"range":338,"name":"五线城市"},"y":3535,"cityNo":263},"张家界":{"name":"张家界市","province":"湖南省永定区南庄路2","lat":29.1197270293,"lon":110.4741817954,"x":5629,"level":{"level":6,"range":338,"name":"五线城市"},"y":3906,"cityNo":264},"酒泉":{"name":"酒泉市","province":"甘肃省肃州区富康路","lat":39.738494,"lon":98.500693,"x":3504,"level":{"level":6,"range":338,"name":"五线城市"},"y":6475,"cityNo":265},"崇左":{"name":"崇左市","province":"广西壮族自治区江州区新城路1号","lat":22.383107,"lon":107.371478,"x":4954,"level":{"level":6,"range":338,"name":"五线城市"},"y":2421,"cityNo":266},"萍乡":{"name":"萍乡市","province":"江西省安源区正大街175号","lat":27.625648094,"lon":113.8498314558,"x":6295,"level":{"level":6,"range":338,"name":"五线城市"},"y":3563,"cityNo":267},"乌海":{"name":"乌海市","province":"内蒙古自治区海勃湾区宜化街","lat":39.6547830613,"lon":106.7893822745,"x":5010,"level":{"level":6,"range":338,"name":"五线城市"},"y":6348,"cityNo":268},"伊春":{"name":"伊春市","province":"黑龙江省伊春区","lat":47.7251199024,"lon":128.8340800167,"x":8846,"level":{"level":6,"range":338,"name":"五线城市"},"y":8400,"cityNo":269},"六盘水":{"name":"六盘水市","province":"贵州省钟山区钟山西路49号","lat":26.5966850742,"lon":104.8281250732,"x":4482,"level":{"level":6,"range":338,"name":"五线城市"},"y":3385,"cityNo":270},"随州":{"name":"随州市","province":"湖北省曾都区迎宾大道9","lat":31.6920883327,"lon":113.3764414964,"x":6204,"level":{"level":6,"range":338,"name":"五线城市"},"y":4480,"cityNo":271},"德宏傣族景颇族自治州":{"name":"德宏傣族景颇族自治州","province":"云南省芒市勇罕街5号","lat":24.4354364214,"lon":98.5846854401,"x":3183,"level":{"level":6,"range":338,"name":"五线城市"},"y":3001,"cityNo":272},"池州":{"name":"池州市","province":"安徽省贵池区百牙中路1号","lat":30.6670333127,"lon":117.4861512553,"x":7007,"level":{"level":6,"range":338,"name":"五线城市"},"y":4255,"cityNo":273},"黑河":{"name":"黑河市","province":"黑龙江省爱辉区王肃街","lat":50.2434811177,"lon":127.5213300338,"x":8569,"level":{"level":6,"range":338,"name":"五线城市"},"y":9022,"cityNo":274},"哈密":{"name":"哈密市","province":"新疆维吾尔自治区哈密地区建国南路28号","lat":42.8183231254,"lon":93.5130917055,"x":2694,"level":{"level":6,"range":338,"name":"五线城市"},"y":7307,"cityNo":275},"文山壮族苗族自治州":{"name":"文山壮族苗族自治州","province":"云南省文山市华龙北路","lat":23.4028887932,"lon":104.2141239835,"x":4315,"level":{"level":6,"range":338,"name":"五线城市"},"y":2681,"cityNo":276},"阿坝藏族羌族自治州":{"name":"阿坝藏族羌族自治州","province":"四川省马尔康县达尔玛街37号","lat":31.9015638625,"lon":102.2229311858,"x":4047,"level":{"level":6,"range":338,"name":"五线城市"},"y":4611,"cityNo":277},"天水":{"name":"天水市","province":"甘肃省秦州区民主西路34号","lat":34.58737,"lon":105.731316,"x":4757,"level":{"level":6,"range":338,"name":"五线城市"},"y":5181,"cityNo":278},"辽源":{"name":"辽源市","province":"吉林省龙山区人民大街215号","lat":42.8852495268,"lon":125.1373532801,"x":8302,"level":{"level":6,"range":338,"name":"五线城市"},"y":7159,"cityNo":279},"张掖":{"name":"张掖市","province":"甘肃省甘州区南环路679","lat":38.9251510994,"lon":100.4483758624,"x":3841,"level":{"level":6,"range":338,"name":"五线城市"},"y":6252,"cityNo":280},"铜仁":{"name":"铜仁市","province":"贵州省碧江区花果山中路8","lat":27.7347111333,"lon":109.185020119,"x":5365,"level":{"level":6,"range":338,"name":"五线城市"},"y":3602,"cityNo":281},"鹤壁":{"name":"鹤壁市","province":"河南省淇滨区九州路91","lat":35.7467712505,"lon":114.2912972162,"x":6380,"level":{"level":6,"range":338,"name":"五线城市"},"y":5407,"cityNo":282},"儋州":{"name":"儋州市","province":"海南省儋州市","lat":19.5229786367,"lon":109.5766823445,"x":5392,"level":{"level":6,"range":338,"name":"五线城市"},"y":1769,"cityNo":283},"保山":{"name":"保山市","province":"云南省隆阳区学府路","lat":25.136153777,"lon":99.1698007107,"x":3317,"level":{"level":6,"range":338,"name":"五线城市"},"y":3146,"cityNo":284},"安康":{"name":"安康市","province":"陕西省汉滨区育才路113号","lat":32.6868228889,"lon":109.0241647624,"x":5367,"level":{"level":6,"range":338,"name":"五线城市"},"y":4721,"cityNo":285},"白城":{"name":"白城市","province":"吉林省洮北区文化东路1号","lat":45.6176086383,"lon":122.8327866596,"x":7857,"level":{"level":6,"range":338,"name":"五线城市"},"y":7799,"cityNo":286},"巴中":{"name":"巴中市","province":"四川省巴州区","lat":31.8693661995,"lon":106.7413097452,"x":4920,"level":{"level":6,"range":338,"name":"五线城市"},"y":4552,"cityNo":287},"普洱":{"name":"普洱市","province":"云南省思茅区","lat":22.8281111377,"lon":100.9649274721,"x":3638,"level":{"level":6,"range":338,"name":"五线城市"},"y":2601,"cityNo":288},"鹤岗":{"name":"鹤岗市","province":"黑龙江省向阳区友谊路","lat":47.3474991085,"lon":130.2902681461,"x":9102,"level":{"level":6,"range":338,"name":"五线城市"},"y":8330,"cityNo":289},"莱芜":{"name":"莱芜市","province":"山东省莱城区文化北路001","lat":36.2137621705,"lon":117.6708493049,"x":7014,"level":{"level":6,"range":338,"name":"五线城市"},"y":5523,"cityNo":290},"阳泉":{"name":"阳泉市","province":"山西省城区南大街23号","lat":37.856174679,"lon":113.5741601295,"x":6247,"level":{"level":6,"range":338,"name":"五线城市"},"y":5897,"cityNo":291},"甘孜藏族自治州":{"name":"甘孜藏族自治州","province":"四川省康定县光明路9号","lat":30.0522694069,"lon":101.9609166124,"x":3965,"level":{"level":6,"range":338,"name":"五线城市"},"y":4198,"cityNo":292},"嘉峪关":{"name":"嘉峪关市","province":"甘肃省嘉峪关市体育大道辅路","lat":39.7708978653,"lon":98.289225545,"x":3466,"level":{"level":6,"range":338,"name":"五线城市"},"y":6487,"cityNo":293},"白银":{"name":"白银市","province":"甘肃省白银区广场北路","lat":36.5446946927,"lon":104.1346738426,"x":4482,"level":{"level":6,"range":338,"name":"五线城市"},"y":5648,"cityNo":294},"临沧":{"name":"临沧市","province":"云南省临翔区世纪路350","lat":23.8868081003,"lon":100.0876951507,"x":3478,"level":{"level":6,"range":338,"name":"五线城市"},"y":2851,"cityNo":295},"商洛":{"name":"商洛市","province":"陕西省商州区民主路","lat":33.8739698276,"lon":109.9134350956,"x":5546,"level":{"level":6,"range":338,"name":"五线城市"},"y":4987,"cityNo":296},"阿克苏地区":{"name":"阿克苏地区","province":"新疆维吾尔自治区阿克苏市南大街5","lat":41.1678636931,"lon":80.2583418861,"x":290,"level":{"level":6,"range":338,"name":"五线城市"},"y":7317,"cityNo":297},"海西蒙古族藏族自治州":{"name":"海西蒙古族藏族自治州","province":"青海省德令哈市乌兰东路16号","lat":37.3764978322,"lon":97.3688608677,"x":3241,"level":{"level":6,"range":338,"name":"五线城市"},"y":5945,"cityNo":298},"大兴安岭地区":{"name":"大兴安岭地区","province":"黑龙江省塔河县","lat":52.5038552583,"lon":123.630043798,"x":7889,"level":{"level":6,"range":338,"name":"五线城市"},"y":9567,"cityNo":299},"七台河":{"name":"七台河市","province":"黑龙江省桃山区大同街31号","lat":45.7681254718,"lon":130.9974304096,"x":9264,"level":{"level":6,"range":338,"name":"五线城市"},"y":7951,"cityNo":300},"朔州":{"name":"朔州市","province":"山西省朔城区市府西街3号","lat":39.3296357776,"lon":112.4260704174,"x":6037,"level":{"level":6,"range":338,"name":"五线城市"},"y":6243,"cityNo":301},"铜川":{"name":"铜川市","province":"陕西省耀州区正阳路9号","lat":34.8974981226,"lon":108.9408931216,"x":5367,"level":{"level":6,"range":338,"name":"五线城市"},"y":5226,"cityNo":302},"定西":{"name":"定西市","province":"甘肃省安定区中华路30号","lat":35.5812029866,"lon":104.6232999388,"x":4560,"level":{"level":6,"range":338,"name":"五线城市"},"y":5420,"cityNo":303},"迪庆藏族自治州":{"name":"迪庆藏族自治州","province":"云南省香格里拉县长征大道21","lat":27.8225368241,"lon":99.701977566,"x":3478,"level":{"level":6,"range":338,"name":"五线城市"},"y":3735,"cityNo":304},"日喀则":{"name":"日喀则市","province":"西藏自治区日喀则地区青岛路20号","lat":29.2730445061,"lon":88.8851689197,"x":1389,"level":{"level":6,"range":338,"name":"五线城市"},"y":4322,"cityNo":305},"庆阳":{"name":"庆阳市","province":"甘肃省西峰区庆州西路1","lat":35.7093186984,"lon":107.6386789689,"x":5128,"level":{"level":6,"range":338,"name":"五线城市"},"y":5422,"cityNo":306},"昭通":{"name":"昭通市","province":"云南省昭阳区崇义街30号","lat":27.3415681737,"lon":103.7147054923,"x":4269,"level":{"level":6,"range":338,"name":"五线城市"},"y":3565,"cityNo":307},"喀什地区":{"name":"喀什地区","province":"新疆维吾尔自治区喀什市解放北路46号","lat":39.4699136226,"lon":75.9869004264,"x":-554,"level":{"level":6,"range":338,"name":"五线城市"},"y":7097,"cityNo":308},"怒江傈僳族自治州":{"name":"怒江傈僳族自治州","province":"云南省泸水县","lat":25.820954819,"lon":98.8563298754,"x":3268,"level":{"level":6,"range":338,"name":"五线城市"},"y":3304,"cityNo":309},"海东":{"name":"海东市","province":"青海省海东地区平安县平安大道208号","lat":36.5022595795,"lon":102.1022337413,"x":4102,"level":{"level":6,"range":338,"name":"五线城市"},"y":5664,"cityNo":310},"阿勒泰地区":{"name":"阿勒泰地区","province":"新疆维吾尔自治区阿勒泰市解放路8号","lat":47.8436749801,"lon":88.1379253975,"x":1949,"level":{"level":6,"range":338,"name":"五线城市"},"y":8668,"cityNo":311},"平凉":{"name":"平凉市","province":"甘肃省崆峒区西大街141号","lat":35.5434387617,"lon":106.6610384342,"x":4943,"level":{"level":6,"range":338,"name":"五线城市"},"y":5392,"cityNo":312},"石嘴山":{"name":"石嘴山市","province":"宁夏回族自治区大武口区香山路","lat":38.9831241927,"lon":106.3793345178,"x":4928,"level":{"level":6,"range":338,"name":"五线城市"},"y":6194,"cityNo":313},"武威":{"name":"武威市","province":"甘肃省凉州区东大街50号","lat":37.9281218717,"lon":102.6363946644,"x":4225,"level":{"level":6,"range":338,"name":"五线城市"},"y":5988,"cityNo":314},"阿拉善盟":{"name":"阿拉善盟","province":"内蒙古自治区阿拉善左旗","lat":38.8514314334,"lon":105.7247047113,"x":4806,"level":{"level":6,"range":338,"name":"五线城市"},"y":6169,"cityNo":315},"塔城地区":{"name":"塔城地区","province":"新疆维吾尔自治区塔城市新华路","lat":46.7445191923,"lon":82.9774071388,"x":1032,"level":{"level":6,"range":338,"name":"五线城市"},"y":8553,"cityNo":316},"林芝":{"name":"林芝市","province":"西藏自治区林芝地区林芝县广福大道","lat":29.6508833004,"lon":94.3603774243,"x":2469,"level":{"level":6,"range":338,"name":"五线城市"},"y":4255,"cityNo":317},"金昌":{"name":"金昌市","province":"甘肃省金川区新华路82号","lat":38.5196596869,"lon":102.1859101158,"x":4152,"level":{"level":6,"range":338,"name":"五线城市"},"y":6132,"cityNo":318},"吴忠":{"name":"吴忠市","province":"宁夏回族自治区利通区","lat":37.9968522983,"lon":106.1943237983,"x":4883,"level":{"level":6,"range":338,"name":"五线城市"},"y":5965,"cityNo":319},"中卫":{"name":"中卫市","province":"宁夏回族自治区沙坡头区政通东路5","lat":37.4993855002,"lon":105.1929575285,"x":4692,"level":{"level":6,"range":338,"name":"五线城市"},"y":5858,"cityNo":320},"陇南":{"name":"陇南市","province":"甘肃省武都区","lat":33.4027559451,"lon":104.9190396748,"x":4587,"level":{"level":6,"range":338,"name":"五线城市"},"y":4918,"cityNo":321},"山南":{"name":"山南市","province":"西藏自治区山南地区乃东县","lat":29.243035,"lon":91.778668,"x":1953,"level":{"level":6,"range":338,"name":"五线城市"},"y":4231,"cityNo":322},"吐鲁番":{"name":"吐鲁番市","province":"新疆维吾尔自治区吐鲁番地区绿洲东路","lat":42.957027,"lon":89.19727,"x":1940,"level":{"level":6,"range":338,"name":"五线城市"},"y":7448,"cityNo":323},"博尔塔拉蒙古自治州":{"name":"博尔塔拉蒙古自治州","province":"新疆维吾尔自治区博乐市青得里大街199","lat":44.912209,"lon":82.07291,"x":790,"level":{"level":6,"range":338,"name":"五线城市"},"y":8138,"cityNo":324},"临夏回族自治州":{"name":"临夏回族自治州","province":"甘肃省临夏市红园路15","lat":35.607579,"lon":103.216799,"x":4296,"level":{"level":6,"range":338,"name":"五线城市"},"y":5443,"cityNo":325},"固原":{"name":"固原市","province":"宁夏回族自治区原州区","lat":36.021635,"lon":106.249053,"x":4871,"level":{"level":6,"range":338,"name":"五线城市"},"y":5506,"cityNo":326},"甘南藏族自治州":{"name":"甘南藏族自治州","province":"甘肃省合作市当周街","lat":34.98447263,"lon":102.9092378054,"x":4228,"level":{"level":6,"range":338,"name":"五线城市"},"y":5304,"cityNo":327},"昌都":{"name":"昌都市","province":"西藏自治区昌都地区昌都县昌都西路延伸段","lat":31.1436650016,"lon":97.1725671521,"x":3055,"level":{"level":6,"range":338,"name":"五线城市"},"y":4528,"cityNo":328},"阿里地区":{"name":"阿里地区","province":"西藏自治区噶尔县文化中路","lat":32.5035738513,"lon":80.1039635489,"x":-160,"level":{"level":6,"range":338,"name":"五线城市"},"y":5354,"cityNo":329},"海南藏族自治州":{"name":"海南藏族自治州","province":"青海省共和县团结北路26号","lat":36.286809918,"lon":100.6190629111,"x":3821,"level":{"level":6,"range":338,"name":"五线城市"},"y":5637,"cityNo":330},"和田地区":{"name":"和田地区","province":"新疆维吾尔自治区和田市塔乃依北路3号","lat":37.1144995665,"lon":79.9201955141,"x":29,"level":{"level":6,"range":338,"name":"五线城市"},"y":6398,"cityNo":331},"克孜勒苏柯尔克孜自治州":{"name":"克孜勒苏柯尔克孜自治州","province":"新疆维吾尔自治区阿图什市帕米尔路西1院","lat":39.7141212668,"lon":76.1646694551,"x":-509,"level":{"level":6,"range":338,"name":"五线城市"},"y":7146,"cityNo":332},"海北藏族自治州":{"name":"海北藏族自治州","province":"青海省海晏县同宝路4","lat":36.9544898536,"lon":100.8994991397,"x":3886,"level":{"level":6,"range":338,"name":"五线城市"},"y":5787,"cityNo":333},"那曲地区":{"name":"那曲地区","province":"西藏自治区那曲县G317(浙江西路)","lat":31.478480403,"lon":92.0495817678,"x":2075,"level":{"level":6,"range":338,"name":"五线城市"},"y":4724,"cityNo":334},"玉树藏族自治州":{"name":"玉树藏族自治州","province":"青海省玉树县民主路14号","lat":33.0072542985,"lon":97.0062098462,"x":3067,"level":{"level":6,"range":338,"name":"五线城市"},"y":4952,"cityNo":335},"黄南藏族自治州":{"name":"黄南藏族自治州","province":"青海省同仁县夏琼中路10号","lat":35.5199830075,"lon":102.0137723949,"x":4068,"level":{"level":6,"range":338,"name":"五线城市"},"y":5439,"cityNo":336},"果洛藏族自治州":{"name":"果洛藏族自治州","province":"青海省玛沁县团结路310号","lat":34.4728216798,"lon":100.2432926559,"x":3715,"level":{"level":6,"range":338,"name":"五线城市"},"y":5226,"cityNo":337},"三沙":{"name":"三沙市","province":"海南省三沙市","lat":16.497085,"lon":111.673087,"x":5825,"level":{"level":6,"range":338,"name":"五线城市"},"y":1086,"cityNo":338}}
